TimeStamp,,Ambient OK Timer ,Generator Operation Timer,Grid OK Timer ,Grid ON Timer ,Operation Timer ,Turbine Availbility Timer ,Wind Speed OK Timer ,,Total Operating Hours of Yaw ,,GS Phase 1 (A) ,GS Phase 2 (A) ,GS Phase 3 (A),,Operating Frequency (Hz) ,,Active Power (W) ,,Power Factor,,GS Phase 1 (V),GS Phase 2 (V) ,GS Phase 3 (V) ,,Total Active Energy (W),Total Reactive Energy (W) ,,Hydraulic Temperature (C) ,,Temperature Outside Nacelle (C) ,Temperature Inside Nacelle ,,Gearbox Oil Temperature (C) ,,Generator Stator Temperature (C) ,,Slip Ring Temperature (C) ,,Controller Temperature (C) ,,Active Power Generation (W),Active Power Generation (W) ,,Min Rotor Speed (rpm) in 10 mins,Max Rotor Speed (RS) in 10 mins,,Mean Generator Speed (rpm),Max Generator Speed (rpm),Min Generator Speed (rpm),,Min Pitch Angle for Blade 1 (deg),Max Pitch Angle for Blade 1 (deg) ,,Wind Speed (m/s) ,Max Wind Speed Outside Nacelle (m/s),Min Wind Speed Outside Nacelle (m/s) 
2/12/13 14:40,,600,600,600,600,600,600,600,,20,,233.1,227.5,258.6,,49.96,,294400,,1,,401.8,407.6,407.4,,49182,-2189,,24,,2,16,,58,,61,,NaN,,25,,294400,398900,,28.7,28.8,,1515,1522,1508,,0,0.9,,OP,9.5,7.8
2/12/13 14:50,,600,600,600,600,600,600,600,,10,,230.6,224.1,255.1,,49.98,,290600,,1,,402,407.7,407.7,,48377,-2135,,24,,2,17,,55,,59,,NaN,,25,,290600,449400,,28.7,28.9,,1516,1524,1509,,0,1.3,,OP,9.6,7.7
2/12/13 15:00,,600,600,600,600,600,600,600,,30,,262.9,257.9,291.4,,49.99,,331300,,1,,401.4,407.6,407.2,,54991,-3803,,24,,3,16,,57,,58,,NaN,,25,,331300,521200,,28.7,28.9,,1518,1528,1510,,-0.2,1.2,,OP,10.5,7.9
2/12/13 15:10,,600,600,600,600,600,600,600,,0,,317.6,312.3,343.5,,50.02,,396100,,1,,401.8,407.4,407.5,,66168,-6756,,24,,3,16,,58,,59,,NaN,,25,,396100,546200,,28.8,29,,1521,1532,1513,,-0.7,0.5,,OP,10.2,8.6
2/12/13 15:20,,600,600,600,600,600,600,600,,10,,332.5,329.4,359,,50.04,,414600,,1,,401.4,407.8,408.1,,69055,-7946,,24,,2,16,,57,,60,,NaN,,25,,414600,598300,,28.8,29,,1523,1533,1512,,-0.8,0.5,,OP,10.8,8.8
2/12/13 15:30,,600,600,600,600,600,600,600,,10,,276.1,269.7,300.8,,50.01,,345300,,1,,401.8,407.3,407.6,,57505,-4480,,24,,2,16,,55,,59,,NaN,,25,,345300,484400,,28.7,28.9,,1519,1526,1512,,-0.4,0.9,,OP,10.4,8.2
2/12/13 15:40,,600,600,600,600,600,600,600,,0,,313.3,306.8,337.9,,49.98,,389500,,1,,401.2,406.9,407.1,,64934,-6493,,24,,2,16,,57,,59,,NaN,,25,,389500,536800,,28.7,29,,1520,1529,1511,,-0.7,0.7,,OP,10.4,8.6
2/12/13 15:50,,600,600,600,600,600,600,600,,0,,342.5,336,366.9,,49.99,,424200,,1,,401.3,406.8,407.5,,70810,-8399,,24,,2,16,,58,,59,,NaN,,25,,424200,583500,,28.8,29,,1522,1531,1513,,-1,0.2,,OP,10.9,8.9
2/12/13 16:00,,600,600,600,600,600,600,600,,0,,311.4,306.2,335.2,,50,,387800,,1,,401.7,407.3,407.4,,64491,-6445,,24,,2,16,,55,,59,,NaN,,25,,387800,517100,,28.8,28.9,,1520,1528,1514,,-0.7,0.3,,OP,10.3,8.6
2/12/13 16:10,,600,600,600,600,600,600,600,,0,,228.9,220.2,250.5,,50,,286300,,1,,401.9,407.4,408.1,,47791,-2143,,24,,2,16,,56,,58,,NaN,,25,,286300,498900,,28.7,28.9,,1516,1528,1510,,0,1,,OP,10.2,7.7
2/12/13 16:20,,600,600,600,600,600,600,600,,10,,244.4,235.2,267,,49.94,,304600,,1,,400.9,406.9,407.2,,50908,-2969,,24,,2,16,,57,,57,,NaN,,25,,304600,483000,,28.6,28.9,,1515,1524,1507,,-0.1,1.1,,OP,10.5,7.8
2/12/13 16:30,,600,600,600,600,600,600,600,,10,,208.7,200.9,231.9,,49.96,,263000,,1,,401.4,407.3,407.3,,43899,-1005,,24,,2,16,,58,,55,,NaN,,25,,263000,347400,,28.6,28.8,,1514,1519,1509,,0.1,0.8,,OP,8.8,7.4
2/12/13 16:40,,600,600,600,600,600,600,600,,10,,227.5,218,250.1,,50,,285100,,1,,401.7,407.6,408,,47501,-1744,,24,,2,16,,58,,53,,NaN,,25,,285100,390600,,28.7,28.8,,1516,1523,1510,,0,0.8,,OP,9.1,7.7
2/12/13 16:50,,600,600,600,600,600,600,600,,0,,194.6,185.3,216.8,,50,,245000,,1,,401.8,407.6,407.8,,40974,-448,,24,,2,16,,59,,52,,NaN,,25,,245000,351900,,28.6,28.8,,1514,1521,1509,,0.2,1.3,,OP,8.9,7.3
2/12/13 17:00,,600,600,600,600,600,600,600,,0,,210.5,201.6,231.8,,50.03,,264400,,1,,402.3,406.7,408.5,,43943,-978,,24,,2,16,,59,,51,,NaN,,25,,264400,378100,,28.7,28.9,,1516,1523,1510,,0.1,1.2,,OP,9.1,7.5
2/12/13 17:10,,600,600,600,600,600,600,600,,0,,191.1,181.2,211.3,,50.03,,239900,,1,,402.2,407.8,408.6,,40036,-302,,24,,2,16,,57,,50,,NaN,,25,,239900,337000,,28.6,28.8,,1515,1521,1510,,0.3,1.2,,OP,8.7,7.2
2/12/13 17:20,,600,600,600,600,600,600,600,,0,,252.3,243.4,271.4,,50.04,,314400,,1,,403.7,407.5,408.5,,52259,-3042,,24,,2,15,,56,,50,,NaN,,25,,314400,473800,,28.7,29,,1519,1529,1514,,-0.1,0.6,,OP,9.7,7.9
2/12/13 17:30,,600,600,600,600,600,600,600,,0,,343.8,336.3,362.3,,50.03,,424600,,1,,403.2,408.2,408,,70720,-8334,,24,,2,15,,58,,52,,NaN,,24,,424600,548500,,28.8,29,,1523,1531,1517,,-1,0.1,,OP,10.8,8.9
2/12/13 17:40,,600,600,600,600,600,600,600,,40,,230.6,222,251.1,,50.01,,288600,,1,,402.9,408,408.9,,48235,-2142,,23,,2,15,,59,,53,,NaN,,24,,288600,426500,,28.7,28.9,,1516,1524,1510,,0,1.3,,OP,9.6,7.6
2/12/13 17:50,,600,600,600,600,600,600,600,,0,,277.3,269.8,297.8,,50.01,,345600,,1,,402.8,407.8,408.7,,57445,-4421,,23,,2,15,,57,,52,,NaN,,24,,345600,451700,,28.7,28.9,,1519,1525,1514,,-0.4,0.4,,OP,10.1,8.3
2/12/13 18:00,,600,600,600,600,600,600,600,,0,,267,259.7,288.7,,50.01,,333700,,1,,402.7,407.9,408.8,,55826,-3928,,23,,1,15,,55,,52,,NaN,,24,,333700,423400,,28.7,28.9,,1518,1525,1513,,-0.4,0.4,,OP,9.6,8.2
2/12/13 18:10,,600,600,600,600,600,600,600,,20,,174.9,165.8,196.2,,50.01,,220700,,1,,402.8,408.2,409,,36734,365,,23,,1,15,,57,,51,,NaN,,24,,220700,317900,,28.6,28.8,,1514,1519,1508,,0.4,1.4,,OP,8.7,7
2/13/13 3:50,,600,600,600,600,600,600,600,,30,,508.1,504.6,525.5,,50.13,,626800,,0.98,,410.2,413.6,415.4,,104097,-21329,,36,,3,22,,56,,101,,NaN,,31,,626800,681400,,29.4,30.7,,1557,1618,1516,,5.3,11.7,,OP,15.4,11.8
2/13/13 4:00,,600,600,600,600,600,600,600,,10,,536.8,534.7,554.5,,50.1,,659900,,0.98,,408.5,413.7,414,,109986,-23711,,36,,3,22,,58,,102,,NaN,,31,,659900,662800,,29.6,30.4,,1563,1611,1533,,8.2,11.2,,OP,15.1,12.7
2/13/13 4:10,,600,600,600,600,600,600,600,,20,,537.6,534.8,561.3,,50.01,,659800,,0.98,,407.1,412.2,411.8,,109972,-23896,,36,,3,23,,57,,102,,NaN,,31,,659800,663000,,29.5,30.5,,1561,1615,1531,,8.1,11.8,,OP,15,12.7
2/13/13 4:20,,600,600,600,600,600,600,600,,0,,536,533.1,560.1,,50.02,,658500,,0.98,,407.2,412.1,412.8,,109750,-23768,,36,,3,22,,55,,103,,NaN,,31,,658500,681500,,29.5,30.5,,1559,1609,1524,,5.3,11.2,,OP,15.8,11.9
2/13/13 4:30,,600,600,600,600,600,600,600,,10,,538.5,534.4,557.9,,50.04,,659900,,0.98,,407.8,412.9,411.9,,109977,-23865,,37,,3,22,,55,,103,,NaN,,31,,659900,663600,,29.5,30.3,,1561,1603,1534,,9.7,13.7,,OP,16.8,13.3
2/13/13 4:40,,600,600,600,600,600,600,600,,30,,537.2,533.8,557.8,,50.07,,659900,,0.98,,408.8,413.1,412.2,,109979,-23787,,37,,3,22,,55,,103,,NaN,,31,,659900,663200,,29.5,30.3,,1562,1603,1530,,9.5,12.8,,OP,15.9,13.3
2/13/13 4:50,,600,600,600,600,600,600,600,,0,,535.6,533.4,556.2,,50.08,,659900,,0.98,,408.9,413.9,412.8,,109981,-23583,,37,,3,22,,57,,103,,NaN,,31,,659900,663500,,29.6,30.5,,1563,1608,1530,,10.6,14.6,,OP,16.5,13.8
2/13/13 5:00,,600,600,600,600,600,600,600,,10,,536.5,533.4,556.6,,50.08,,659900,,0.98,,409,413.6,412.8,,109986,-23748,,37,,3,23,,58,,104,,NaN,,31,,659900,663800,,29.5,30.6,,1563,1618,1527,,8.8,13.5,,OP,16.2,13.1
2/13/13 5:10,,600,600,600,600,600,600,600,,0,,535.6,534.5,559.2,,50.06,,659900,,0.98,,408.9,413.1,412.1,,109985,-23844,,37,,3,23,,57,,104,,NaN,,31,,659900,663200,,29.6,30.7,,1563,1622,1521,,11.2,15,,OP,17.4,14.1
2/13/13 5:20,,600,600,600,600,600,600,600,,0,,536.6,533.8,557.9,,50.08,,659900,,0.98,,409,413.2,412.5,,109979,-23833,,37,,3,23,,56,,104,,NaN,,31,,659900,664700,,29.5,30.6,,1562,1610,1530,,8.6,13.7,,OP,16.9,13.1
2/13/13 5:30,,600,600,600,600,600,600,600,,10,,535.8,534.4,558.5,,50.07,,659900,,0.98,,409.3,413.1,412.5,,109982,-23848,,37,,3,23,,55,,104,,NaN,,31,,659900,662800,,29.6,30.6,,1563,1619,1522,,9.5,14.9,,OP,18.3,13.4
2/13/13 5:40,,600,600,600,600,600,600,600,,30,,535.6,535.5,556.5,,50.08,,659800,,0.98,,409.6,413,413.3,,109973,-23907,,37,,3,23,,55,,104,,NaN,,31,,659800,668600,,29.6,30.7,,1563,1626,1519,,7.4,13.5,,OP,17.2,12.5
2/13/13 5:50,,600,600,600,600,600,600,600,,10,,534.2,536,553.3,,50.1,,659800,,0.98,,409.6,414.4,413.7,,109975,-23641,,37,,3,22,,57,,104,,NaN,,31,,659800,662700,,29.6,30.3,,1563,1603,1535,,9.1,12.6,,OP,16,13.1
2/13/13 6:00,,600,600,600,600,600,600,600,,20,,534.1,538.1,556.6,,50.03,,659800,,0.98,,407.9,412.9,413.2,,109971,-23873,,37,,3,22,,58,,104,,NaN,,31,,659800,672600,,29.5,30.4,,1561,1606,1528,,8.5,12.4,,OP,16.1,12.8
2/13/13 6:10,,600,600,600,600,600,600,600,,10,,539,540.2,561.4,,49.91,,659800,,0.98,,405.7,410.6,410.3,,109977,-24206,,37,,3,23,,56,,105,,NaN,,31,,659800,663400,,29.5,30.4,,1558,1601,1520,,10.7,14.1,,OP,17.1,14
2/13/13 6:20,,600,600,600,600,600,600,600,,10,,540.4,538.5,562.2,,49.89,,659900,,0.98,,405.8,410.4,410,,109980,-24216,,37,,2,22,,56,,105,,NaN,,31,,659900,663000,,29.4,30.3,,1557,1599,1525,,13,16.3,,OP,18.5,15.3
2/13/13 6:30,,600,600,600,600,600,600,600,,30,,538.9,541,565.8,,49.86,,659900,,0.98,,404,409.4,410,,109980,-24284,,37,,2,22,,55,,105,,NaN,,31,,659900,667400,,29.4,30.7,,1556,1619,1512,,11,16,,OP,18.4,14.1
2/13/13 6:40,,600,600,600,600,600,600,600,,10,,542.6,541.1,567.5,,49.85,,659900,,0.98,,403,407.4,408.8,,109976,-24286,,37,,1,22,,55,,105,,NaN,,32,,659900,662800,,29.4,30.4,,1556,1607,1516,,10.4,14.8,,OP,17.3,14
2/13/13 6:50,,600,600,600,600,600,600,600,,0,,542.4,540.5,565.4,,49.87,,659800,,0.98,,403.4,408.9,408.2,,109973,-24135,,37,,2,22,,57,,105,,NaN,,31,,659800,672000,,29.4,30.2,,1556,1599,1518,,9.5,13.3,,OP,16.9,13.4
2/13/13 7:00,,600,600,600,600,600,600,600,,10,,543.4,539,568.1,,49.86,,659800,,0.98,,403.2,407.9,408.6,,109971,-24198,,37,,2,23,,58,,105,,NaN,,31,,659800,663200,,29.4,30.6,,1556,1622,1521,,8.2,13,,OP,15.6,12.8
2/13/13 7:10,,600,600,600,600,600,600,600,,0,,543.3,538.6,566.4,,49.83,,657800,,0.98,,402.7,407.7,406.7,,109641,-24279,,37,,3,23,,56,,105,,NaN,,31,,657800,679400,,29.4,30.6,,1554,1614,1509,,9.3,15.5,,OP,18.1,13.7
2/13/13 7:20,,600,600,600,600,600,600,600,,10,,545.3,541.3,566.8,,49.85,,659800,,0.98,,402.5,408.3,407.1,,109976,-24367,,37,,3,21,,56,,105,,NaN,,31,,659800,672100,,29.4,30.4,,1556,1611,1509,,15,18.8,,OP,20.3,16.8
2/13/13 7:30,,600,600,600,600,600,600,600,,10,,541.6,543.3,568.1,,49.86,,659800,,0.98,,401.8,408.2,407.9,,109971,-24355,,37,,3,22,,55,,105,,NaN,,31,,659800,669900,,29.4,30.5,,1556,1617,1512,,13.6,17.3,,OP,19.4,15.7
2/13/13 7:40,,600,600,600,600,600,600,600,,20,,543.6,540.4,569.5,,49.86,,659800,,0.98,,402.9,407.1,407.7,,109971,-24392,,37,,3,22,,55,,106,,NaN,,31,,659800,666600,,29.4,31.2,,1557,1635,1512,,14.5,18.2,,OP,20.2,16.3
2/13/13 7:50,,600,600,600,600,600,600,600,,20,,544.3,541.7,567.2,,49.86,,659900,,0.98,,402.7,408.1,406.4,,109978,-24299,,37,,3,21,,55,,106,,NaN,,31,,659900,669700,,29.4,30.7,,1556,1626,1513,,15.2,21,,OP,21.6,16.8
2/13/13 8:00,,600,600,600,600,600,600,600,,40,,541,541.9,570.4,,49.86,,659800,,0.98,,401.2,408.1,407.6,,109974,-24142,,37,,3,22,,56,,106,,NaN,,31,,659800,663700,,29.4,30.7,,1556,1625,1512,,15.5,20.2,,OP,20.8,17
2/13/13 8:10,,600,600,600,600,600,600,600,,30,,544.7,540,569.8,,49.87,,659900,,0.98,,402.1,407.6,406.6,,109975,-24174,,37,,2,22,,57,,106,,NaN,,31,,659900,663300,,29.4,30.7,,1557,1621,1512,,13.8,17.4,,OP,19.8,15.8
2/13/13 8:20,,600,600,600,600,600,600,600,,20,,541.1,542.5,572.6,,49.82,,659900,,0.98,,400,407.9,406.6,,109982,-24181,,37,,3,23,,58,,106,,NaN,,31,,659900,689000,,29.4,30.9,,1555,1631,1509,,14.3,18,,OP,19.6,16
2/13/13 8:30,,600,600,600,600,600,600,600,,30,,542.1,541.3,574.2,,49.98,,659900,,0.98,,400.8,406.9,406.6,,109980,-24061,,37,,3,22,,58,,107,,NaN,,31,,659900,667700,,29.5,31,,1560,1634,1512,,15.3,19.7,,OP,20.8,16.8
2/13/13 8:40,,600,600,600,600,600,600,600,,30,,544.2,540.5,572.6,,50.03,,659900,,0.98,,401.6,407.1,405.7,,109977,-24043,,37,,3,23,,57,,107,,NaN,,31,,659900,672800,,29.5,30.7,,1562,1627,1515,,15.1,21.7,,OP,22.4,16.6
2/13/13 8:50,,600,600,600,600,600,600,600,,50,,542.1,541.4,571.6,,50.02,,659800,,0.98,,401.1,407.8,406.9,,109970,-24064,,37,,3,22,,56,,107,,NaN,,31,,659800,667000,,29.5,30.7,,1562,1618,1515,,17.3,21.6,,OP,22.6,18.3
2/13/13 9:00,,600,600,600,600,600,600,600,,40,,545.1,541,569.2,,50.01,,659900,,0.98,,401.6,407.4,406.5,,109979,-24103,,37,,3,22,,56,,107,,NaN,,31,,659900,663100,,29.5,30.8,,1560,1625,1525,,18.2,21.8,,OP,22.7,18.7
2/13/13 9:10,,600,600,600,600,600,600,600,,30,,545.5,541.1,569.8,,50.01,,659800,,0.98,,401.5,406.6,407,,109974,-24243,,37,,3,22,,56,,107,,NaN,,31,,659800,678300,,29.5,30.9,,1562,1633,1516,,17.2,21.6,,OP,22.5,18.2
2/13/13 9:20,,600,600,600,600,600,600,600,,10,,544.3,543.2,568.4,,50.01,,659900,,0.98,,401.1,407.4,406.8,,109980,-24215,,37,,3,22,,55,,107,,NaN,,31,,659900,673900,,29.5,30.9,,1561,1644,1514,,19,22.5,,OP,22.7,19.4
2/13/13 9:30,,600,600,600,600,600,600,600,,60,,545.9,541.9,569.2,,50.02,,659900,,0.98,,401.6,406.2,406.7,,109978,-24266,,37,,3,22,,55,,107,,NaN,,31,,659900,675600,,29.5,31,,1562,1643,1515,,19.5,23.2,,OP,23.5,19.7
2/13/13 9:40,,600,600,600,600,600,600,600,,40,,546.1,542.1,569.1,,50.02,,659900,,0.98,,400.9,407.3,406.5,,109975,-24269,,37,,2,21,,55,,107,,NaN,,31,,659900,689100,,29.5,31,,1562,1639,1513,,17.8,22.6,,OP,23.1,18.5
2/13/13 9:50,,600,600,600,600,600,600,600,,30,,546.7,540.8,570.7,,50.03,,659800,,0.98,,400.6,405.8,407,,109971,-24209,,37,,2,21,,54,,107,,NaN,,31,,659800,673500,,29.6,31.2,,1563,1649,1515,,17.8,21.1,,OP,21.9,18.5
2/13/13 10:00,,600,600,600,600,600,600,600,,50,,548.4,542.7,569,,50.03,,659900,,0.98,,400.7,406,405.3,,109982,-24193,,37,,2,22,,55,,107,,NaN,,31,,659900,688100,,29.5,31.1,,1562,1650,1515,,17.8,22,,OP,22.8,18.5
2/13/13 10:10,,600,600,600,600,600,600,600,,30,,546.9,543.3,570.2,,50.03,,659900,,0.98,,400.1,405.3,406.4,,109983,-24225,,37,,2,23,,56,,107,,NaN,,31,,659900,688200,,29.5,31.4,,1562,1642,1513,,18.1,23.1,,OP,23.8,18.3
2/13/13 10:20,,600,600,600,600,600,600,600,,80,,548.6,542.1,569.8,,50.03,,659800,,0.98,,401.3,405.3,405.7,,109963,-24308,,37,,3,23,,57,,107,,NaN,,31,,659800,724000,,29.6,31.1,,1563,1652,1511,,17.9,23.2,,OP,23,18.4
2/13/13 10:30,,600,600,600,600,600,600,600,,30,,549.2,542.4,568.7,,50.04,,659900,,0.98,,401.5,405.3,405.6,,109976,-24204,,37,,3,24,,58,,107,,NaN,,31,,659900,679100,,29.5,30.9,,1562,1636,1514,,19,22.8,,OP,23.6,19.1
2/13/13 10:40,,600,600,600,600,600,600,600,,40,,548.7,543.8,566.8,,50.04,,659800,,0.98,,401.7,405.7,405.4,,109975,-24242,,37,,2,24,,58,,108,,NaN,,31,,659800,688400,,29.5,30.7,,1562,1617,1513,,15.1,18.7,,OP,19.6,16
2/13/13 10:50,,600,600,600,600,600,600,600,,70,,548.1,544.5,567.3,,50.02,,659900,,0.98,,400.4,405.4,406.5,,109984,-24331,,37,,2,23,,58,,108,,NaN,,31,,659900,669100,,29.5,30.8,,1562,1633,1513,,14.6,20.9,,OP,22.7,15.8
2/13/13 11:00,,600,600,600,600,600,600,600,,70,,550.5,543.4,567.3,,50,,659800,,0.98,,400.6,405.2,405.6,,109970,-24352,,37,,1,23,,59,,108,,NaN,,31,,659800,668700,,29.5,30.7,,1561,1633,1516,,16.5,22.8,,OP,21.7,17.1
2/13/13 11:10,,600,600,600,600,600,600,600,,50,,551.6,542.7,567.8,,49.96,,659700,,0.98,,400,404.8,405.9,,109945,-24399,,37,,2,24,,59,,108,,NaN,,31,,659700,728300,,29.5,30.9,,1560,1642,1508,,17.8,24.8,,OP,23.7,17.9
2/13/13 11:20,,600,600,600,600,600,600,600,,50,,551.3,542.5,567.2,,49.99,,659900,,0.98,,400.5,405,406.2,,109978,-24371,,37,,3,23,,59,,108,,NaN,,31,,659900,714800,,29.5,31,,1561,1649,1510,,20.4,24.5,,OP,23.4,19.7
2/13/13 11:30,,600,600,600,600,600,600,600,,30,,550.4,542.7,566,,50.03,,659900,,0.98,,401.1,404.9,407,,109980,-24333,,37,,1,23,,59,,109,,NaN,,31,,659900,687800,,29.5,31,,1562,1638,1513,,20.3,24.7,,OP,24.6,19.4
2/13/13 11:40,,600,600,600,600,600,600,600,,50,,550.7,543.4,564.4,,50.03,,659900,,0.98,,402,405.6,406,,109983,-24376,,37,,1,24,,58,,109,,NaN,,31,,659900,701500,,29.6,31.1,,1563,1640,1515,,21,25.3,,OP,24.6,19.9
2/13/13 11:50,,600,600,600,600,600,600,600,,60,,549.5,544.6,564,,50,,659900,,0.98,,401.5,405.4,407.1,,109980,-24440,,37,,1,23,,58,,109,,NaN,,31,,659900,690300,,29.5,30.7,,1561,1623,1513,,22.7,26.8,,OP,25.9,21.2
2/13/13 12:00,,600,600,600,600,600,600,600,,30,,549.2,544.7,562.3,,50,,659800,,0.98,,401.9,405.8,407.1,,109968,-24406,,37,,1,23,,58,,109,,NaN,,30,,659800,708600,,29.5,30.9,,1561,1638,1512,,22,26,,OP,24.8,20.5
2/13/13 12:10,,600,600,600,600,600,600,600,,30,,549.3,544.8,562.2,,50,,659800,,0.98,,401.8,405.9,407.2,,109975,-24463,,37,,1,23,,58,,109,,NaN,,30,,659800,686100,,29.5,30.9,,1562,1636,1511,,21.7,25.1,,OP,25.1,20.5
2/13/13 12:20,,600,600,600,600,600,600,600,,40,,548.7,543.5,563.5,,50.02,,659700,,0.98,,402.5,405.5,406.8,,109959,-24404,,37,,1,23,,58,,109,,NaN,,30,,659700,724800,,29.5,31.4,,1562,1660,1510,,22.6,26.7,,OP,26.5,21.1
2/13/13 12:30,,600,600,600,600,600,600,600,,10,,548.8,545.7,561.7,,50,,659800,,0.98,,401.8,406,407,,109981,-24378,,37,,1,22,,58,,109,,NaN,,30,,659800,726000,,29.5,31,,1561,1651,1511,,22.3,26.1,,OP,25.5,20.9
2/13/13 12:40,,600,600,600,600,600,600,600,,40,,549.7,547.1,563.2,,49.96,,659900,,0.98,,401.4,405.1,406.2,,109973,-24575,,37,,0,22,,58,,109,,NaN,,30,,659900,679100,,29.5,31.6,,1561,1675,1513,,21.2,27.2,,OP,26.9,20.1
2/13/13 12:50,,600,600,600,600,600,600,600,,60,,549.6,546.5,564.5,,49.95,,659800,,0.98,,401.1,405.1,406,,109973,-24572,,37,,1,22,,57,,109,,NaN,,30,,659800,697700,,29.5,30.9,,1560,1630,1509,,23.1,26.9,,OP,25.5,21.3
2/13/13 13:00,,600,600,600,600,600,600,600,,50,,549.3,545.4,564.1,,49.95,,659300,,0.98,,401.1,405.2,406.1,,109878,-24506,,37,,1,21,,57,,109,,NaN,,30,,659300,730200,,29.5,31.1,,1560,1646,1506,,24.5,27.8,,OP,27.2,22.6
2/13/13 13:10,,600,600,600,600,600,600,600,,40,,548.7,545.1,566.1,,49.96,,659800,,0.98,,401,405.4,406.1,,109978,-24467,,37,,1,21,,57,,109,,NaN,,30,,659800,688000,,29.5,31.2,,1560,1639,1510,,23.3,27,,OP,26.6,21.8
2/13/13 13:20,,600,600,600,600,600,600,600,,90,,548.3,546,566.1,,49.97,,659900,,0.98,,400.9,405.4,405.9,,109981,-24536,,37,,1,22,,57,,109,,NaN,,30,,659900,701300,,29.5,31.2,,1560,1645,1509,,23.2,26.7,,OP,27.1,22.1
2/13/13 13:30,,600,600,600,600,600,600,600,,40,,549.6,545.5,567.5,,49.91,,659900,,0.98,,400.8,405.2,405.5,,109987,-24542,,37,,1,21,,57,,109,,NaN,,29,,659900,674900,,29.5,30.8,,1559,1648,1509,,21.6,26.1,,OP,25.1,20.4
2/13/13 13:40,,600,600,600,600,600,600,600,,50,,547.4,546.6,570,,49.83,,659700,,0.98,,399.1,405.6,405.3,,109937,-24570,,37,,0,21,,57,,109,,NaN,,29,,659700,699800,,29.4,31.2,,1556,1636,1507,,21.3,25.8,,OP,24.6,19.9
2/13/13 13:50,,600,600,600,600,600,600,600,,40,,547.2,547.6,571.9,,49.82,,659900,,0.98,,399.5,403.9,405.3,,110013,-24590,,37,,0,22,,57,,109,,NaN,,29,,659900,684200,,29.4,30.9,,1555,1628,1513,,18.8,23.4,,OP,23.1,18.5
2/13/13 14:00,,600,600,600,600,600,600,600,,10,,546.4,546.8,573.3,,49.91,,659700,,0.98,,398.9,404.9,403.9,,109958,-24418,,37,,1,22,,57,,109,,NaN,,29,,659700,730600,,29.5,31,,1559,1644,1508,,20.3,24.8,,OP,23.5,19.4
2/13/13 14:10,,600,600,600,600,600,600,600,,20,,546.3,547,573.5,,49.88,,659800,,0.98,,399.5,404.7,403.8,,109976,-24390,,37,,0,21,,57,,109,,NaN,,29,,659800,689700,,29.5,31.3,,1557,1649,1508,,21.3,23.9,,OP,23.5,19.9
2/13/13 14:20,,600,600,600,600,600,600,600,,50,,546.4,546.9,573.2,,49.9,,659800,,0.98,,399,404.8,404.4,,109976,-24449,,37,,0,21,,57,,110,,NaN,,29,,659800,697900,,29.5,30.9,,1559,1629,1510,,21.3,25.9,,OP,25.3,20.3
2/13/13 14:30,,600,600,600,600,600,600,600,,90,,545.4,547.2,573.1,,49.92,,659800,,0.98,,399.5,405,404.4,,109969,-24440,,37,,0,21,,57,,110,,NaN,,29,,659800,708500,,29.5,31.2,,1559,1649,1509,,21.3,26.5,,OP,26.3,20.4
2/13/13 14:40,,600,600,600,600,600,600,600,,60,,546,547.6,571.6,,49.95,,659900,,0.98,,399.6,405,404.5,,109980,-24476,,37,,1,21,,57,,110,,NaN,,29,,659900,690200,,29.5,31.1,,1560,1645,1509,,19.9,27.1,,OP,26.2,19.3
2/13/13 14:50,,600,600,600,600,600,600,600,,60,,546,546.7,572.2,,49.99,,659900,,0.98,,399.3,405.1,404.5,,109980,-24351,,37,,1,20,,57,,110,,NaN,,29,,659900,690800,,29.5,30.9,,1561,1637,1512,,21.8,26.8,,OP,26.2,20.5
2/13/13 15:00,,600,600,600,600,600,600,600,,70,,547.3,545.4,571.4,,50.03,,659900,,0.98,,400.2,405.3,404.4,,109983,-24338,,37,,1,20,,57,,110,,NaN,,29,,659900,698400,,29.6,31.3,,1564,1652,1511,,23.8,27.9,,OP,26.8,22.5
2/13/13 15:10,,600,550,600,600,550,600,600,,60,,513.1,513.7,538.6,,50.03,,621000,,0.98,,399.1,405.8,405.4,,104048,-22791,,37,,0,20,,57,,110,,NaN,,29,,621000,691800,,28.7,31.4,,1514,1650,48,,25.3,83,,OP,26.7,21.9
2/13/13 15:20,,600,0,600,600,0,600,600,,10,,0.1,0.1,0.1,,50.02,,-300,,1,,398.8,406.7,405.3,,0,0,,37,,0,14,,56,,101,,NaN,,29,,-300,-200,,0.3,1.7,,66,124,19,,83,83,,OP,27.9,22
2/13/13 15:30,,600,0,600,600,0,600,600,,40,,0.1,0.2,0.2,,49.99,,-400,,1,,398.6,406.5,405,,0,0,,36,,0,11,,54,,90,,NaN,,28,,-400,-200,,0.4,1.8,,69,139,17,,83,83,,OP,29.6,22.2
2/13/13 15:40,,600,0,600,600,0,600,600,,30,,0.1,0.2,0.1,,49.98,,-400,,1,,398.5,405.7,405,,0,0,,36,,0,10,,52,,84,,NaN,,27,,-400,-200,,0.6,1.9,,71,137,18,,83,83,,OP,30,22.6
2/13/13 15:50,,600,0,600,600,0,600,600,,60,,0.2,0.2,0.2,,49.97,,-400,,1,,398.6,405.8,404.9,,0,0,,35,,0,9,,50,,80,,NaN,,26,,-400,-200,,0.5,2.2,,68,134,14,,83,83,,OP,28.7,22.9
2/13/13 16:00,,600,0,600,600,0,600,600,,70,,0.2,0.3,0.3,,49.98,,-400,,1,,398.8,405.8,405.1,,0,0,,34,,0,8,,50,,77,,NaN,,25,,-400,-200,,0.4,2,,65,156,12,,83,83,,CUTOUT,30.7,23.4
2/13/13 20:30,,10,0,590,600,0,600,0,,60,,0.3,0.3,0.3,,50.03,,-500,,1,,400.5,407.5,407,,0,0,,17,,-1,4,,31,,42,,NaN,,16,,-500,-300,,0.5,2,,68,152,11,,83,86.7,,CUTOUT,35.3,25.6
2/13/13 20:40,,600,0,0,600,0,600,0,,0,,0,0,0,,50.09,,-200,,1,,400,407.7,407.8,,0,0,,16,,-1,4,,29,,41,,NaN,,16,,-200,-200,,0,0,,0,86,0,,86.7,86.7,,CUTOUT,34.8,25.9
2/13/13 20:50,,600,0,0,600,0,600,0,,0,,0,0,0,,50.11,,-200,,1,,401,408,407,,0,0,,16,,-1,4,,29,,40,,NaN,,15,,-200,-200,,0,0,,0,0,0,,86.7,86.7,,CUTOUT,36.8,29.1
2/13/13 21:00,,600,0,10,600,0,600,0,,0,,0,0,0,,50.14,,-200,,1,,401.4,408,407.8,,0,0,,15,,-1,4,,28,,38,,NaN,,15,,-200,-200,,0,0,,0,0,0,,86.7,86.7,,CUTOUT,36.4,28.2
2/14/13 3:00,,10,0,600,600,0,600,600,,20,,0.1,0.1,0.1,,49.8,,-300,,1,,402.4,407.5,406.3,,0,0,,9,,0,5,,16,,20,,NaN,,15,,-300,-300,,0.2,1.7,,63,123,8,,83,83,,OP,25.8,20.6
2/14/13 3:10,,600,0,600,600,0,600,600,,30,,0.1,0.1,0.1,,49.79,,-300,,1,,400.5,407.4,408,,0,0,,9,,1,5,,16,,20,,NaN,,15,,-300,-300,,0.2,1.8,,61,111,9,,83,83,,OP,25.8,19.8
2/14/13 3:20,,600,0,600,600,0,600,600,,20,,0.1,0.1,0.1,,49.81,,-300,,1,,400.8,407.4,408.6,,0,0,,9,,1,5,,16,,20,,NaN,,16,,-300,-300,,0.2,1.9,,60,126,12,,83,83,,OP,24.7,19.4
2/14/13 3:30,,600,0,600,600,0,600,600,,20,,0,0,0,,49.8,,-300,,1,,401,407.9,407.7,,0,0,,9,,1,5,,16,,20,,NaN,,16,,-300,-300,,0.2,1.7,,62,108,25,,83,83,,OP,25.3,19.7
2/14/13 3:40,,600,0,600,600,0,600,600,,100,,0.4,0.5,0.4,,49.8,,-600,,1,,400.6,408,407.6,,0,0,,9,,1,5,,16,,19,,NaN,,16,,-600,-300,,0.2,1.6,,60,109,13,,83,83,,OP,26,19.9
2/14/13 3:50,,600,0,600,600,0,600,600,,40,,0.1,0.1,0.1,,49.83,,-400,,1,,400.8,407.5,407.9,,0,0,,9,,1,5,,16,,19,,NaN,,16,,-400,-300,,0.1,1.7,,56,107,13,,83,83,,OP,24.6,18.9
2/14/13 4:00,,600,0,600,600,0,600,600,,20,,0.1,0.1,0.1,,49.85,,-300,,1,,400,407.6,406.3,,0,0,,9,,1,6,,15,,19,,NaN,,16,,-300,-300,,0.2,1.7,,61,117,12,,83,83,,OP,24.3,19
2/14/13 4:10,,600,0,600,600,0,600,600,,30,,0,0.1,0.1,,49.97,,-300,,1,,397.8,405.6,404.4,,0,0,,9,,1,6,,15,,19,,NaN,,16,,-300,-300,,0.2,1.8,,62,110,25,,83,83,,OP,24.3,19.2
2/14/13 4:20,,600,0,600,600,0,600,600,,20,,0.1,0.1,0.1,,49.98,,-300,,1,,398.1,405.4,404.5,,0,0,,9,,1,6,,15,,18,,NaN,,16,,-300,-300,,0.2,1.7,,57,112,10,,83,83,,OP,24.6,18.5
2/14/13 4:30,,600,0,600,600,0,600,600,,0,,0,0,0,,50,,-300,,1,,398,405.7,404.9,,0,0,,9,,1,6,,15,,18,,NaN,,16,,-300,-300,,0.1,1.7,,56,112,12,,83,83,,OP,23.5,17.6
2/14/13 4:40,,600,0,600,600,0,600,600,,0,,0,0,0,,50.03,,-300,,1,,398.6,406.1,405.3,,0,0,,9,,1,6,,15,,18,,NaN,,16,,-300,-300,,0.1,1.6,,54,98,12,,83,83,,OP,21.9,17
2/14/13 4:50,,600,0,600,600,0,600,600,,40,,0.2,0.2,0.2,,50.04,,-400,,1,,398.6,406.1,405.7,,0,0,,9,,1,6,,15,,18,,NaN,,16,,-400,-300,,0,1.5,,50,88,17,,83,83,,OP,22.4,15.8
2/14/13 5:00,,600,0,600,600,0,600,600,,10,,0.1,0.1,0.1,,50.04,,-300,,1,,398.2,406.2,406,,0,0,,9,,1,6,,14,,18,,NaN,,16,,-300,-300,,0,1.6,,51,97,11,,83,83,,OP,20.9,16
2/14/13 5:10,,600,0,600,600,0,600,600,,0,,0,0,0,,50.02,,-300,,1,,398.6,406.3,404.9,,0,0,,9,,1,6,,14,,17,,NaN,,16,,-300,-300,,0,1.5,,50,88,19,,83,83,,OP,20.9,14.9
2/14/13 5:20,,600,0,600,600,0,600,600,,0,,0,0,0,,49.98,,-300,,1,,399.1,406.3,405.3,,0,0,,9,,1,6,,14,,17,,NaN,,16,,-300,-300,,0,1.5,,49,93,17,,83,83,,OP,21,15.6
2/14/13 5:30,,600,0,600,600,0,600,600,,60,,0.2,0.2,0.2,,49.92,,-400,,1,,399.7,406.2,405.6,,0,0,,9,,1,6,,14,,17,,NaN,,16,,-400,-300,,0,1.6,,52,101,18,,83,83,,OP,20.6,15.2
2/14/13 5:40,,600,0,600,600,0,600,600,,30,,0.1,0.1,0.1,,49.93,,-400,,1,,400.1,406.3,405.8,,0,0,,9,,2,6,,14,,17,,NaN,,17,,-400,-300,,0,1.5,,48,96,13,,83,83,,OP,19.1,13.7
2/14/13 5:50,,600,0,600,600,0,600,600,,0,,0,0.1,0,,49.99,,-300,,1,,401,406.9,406.7,,0,0,,9,,2,6,,14,,17,,NaN,,17,,-300,-300,,0,1.5,,46,94,12,,83,83,,OP,18.9,14.2
2/14/13 6:00,,600,0,600,600,0,600,600,,20,,0.1,0.1,0.1,,49.96,,-300,,1,,400.5,406.5,406.4,,0,0,,9,,2,6,,14,,17,,NaN,,17,,-300,-300,,0,1.5,,44,88,15,,83,83,,OP,17.5,13
2/14/13 6:10,,600,0,600,600,0,600,600,,40,,0.2,0.2,0.2,,49.88,,-400,,1,,399.6,406,405.1,,0,0,,9,,2,6,,13,,16,,NaN,,17,,-400,-300,,0,0,,41,81,7,,83,83,,OP,17.4,12.5
2/14/13 6:20,,600,0,600,600,0,600,600,,0,,0,0,0,,49.91,,-300,,1,,400,406.4,405.3,,0,0,,9,,2,6,,13,,16,,NaN,,17,,-300,-300,,0,0,,41,71,13,,83,83,,OP,15.7,11.6
2/14/13 6:30,,600,0,600,600,0,600,600,,20,,0,0,0,,49.9,,-300,,1,,399.8,406.4,405.3,,0,0,,9,,2,6,,13,,16,,NaN,,17,,-300,-300,,0,0,,40,75,11,,83,83,,OP,15.6,11.4
2/14/13 6:40,,600,0,600,600,0,600,600,,0,,0,0,0,,49.89,,-300,,1,,399.8,405.9,405.2,,0,0,,9,,2,6,,13,,16,,NaN,,17,,-300,-300,,0,1.5,,37,81,11,,83,83,,OP,13.7,10.4
2/14/13 6:50,,600,0,600,600,0,600,600,,10,,0,0,0,,49.92,,-300,,1,,400.1,406,405.9,,0,0,,9,,2,6,,13,,16,,NaN,,17,,-300,-300,,0,0,,36,61,12,,83,83,,OP,13.3,10.3
2/14/13 7:00,,600,0,600,600,0,600,600,,0,,0.1,0.1,0.1,,49.9,,-300,,1,,400,405.9,405.7,,0,0,,9,,2,6,,13,,16,,NaN,,17,,-300,-300,,0,1.5,,36,85,14,,83,83,,OP,13.8,10
2/14/13 7:10,,600,490,600,600,530,600,600,,20,,416.2,414.3,431.1,,49.92,,500300,,0.98,,400,404.7,405.4,,83049,-17768,,9,,2,7,,17,,20,,NaN,,17,,500300,680800,,24.5,30.2,,1301,1593,17,,13.3,83,,OP,12.9,10.4
2/14/13 7:20,,600,600,600,600,600,600,600,,0,,522.6,522.8,540.7,,49.96,,632100,,0.98,,401.3,405.4,406,,105406,-22095,,10,,3,10,,28,,34,,NaN,,17,,632100,680400,,29.2,30.1,,1543,1595,1519,,0.1,6.1,,OP,12.9,10.6
2/14/13 7:30,,600,600,600,600,600,600,600,,0,,497.1,497.2,516.7,,49.97,,603800,,0.98,,401.6,405.8,406.4,,100611,-20018,,10,,3,11,,35,,44,,NaN,,17,,603800,680500,,29.1,30.2,,1536,1599,1516,,-0.6,6.7,,OP,13.2,10.2
2/14/13 7:40,,600,600,600,600,600,600,600,,0,,537,536.8,556.4,,49.98,,648700,,0.98,,401.1,405.5,405.9,,108100,-23438,,11,,3,12,,40,,52,,NaN,,18,,648700,680700,,29.3,30.2,,1551,1596,1518,,2.1,8.1,,OP,13.3,11
2/14/13 7:50,,600,600,600,600,600,600,600,,0,,544,543.8,565.1,,49.98,,657400,,0.98,,401,405.8,405.8,,109570,-24060,,12,,3,13,,45,,60,,NaN,,18,,657400,681400,,29.4,30.5,,1557,1604,1523,,4.5,9.9,,OP,14,11.6
2/14/13 8:00,,600,600,600,600,600,600,600,,0,,546.5,544.7,567.4,,49.92,,658100,,0.98,,399.9,405.4,405.1,,109766,-24286,,14,,3,15,,47,,66,,NaN,,18,,658100,663500,,29.4,30.3,,1557,1608,1519,,3.5,8.7,,OP,13.9,11.4
2/14/13 8:10,,600,600,600,600,600,600,600,,0,,527.2,524.7,548.8,,49.91,,635100,,0.98,,399.5,404.4,404.4,,105799,-22604,,15,,3,16,,49,,70,,NaN,,19,,635100,680400,,29.2,30.3,,1542,1599,1517,,0.6,7.1,,OP,13,10.6
2/14/13 8:20,,600,600,600,600,600,600,600,,0,,537.4,537.7,562.7,,49.87,,647300,,0.98,,398.8,403.2,403.2,,107861,-23615,,16,,4,16,,51,,74,,NaN,,20,,647300,679400,,29.2,30.4,,1546,1614,1516,,1.3,8.1,,OP,13.5,10.8
2/14/13 8:30,,600,600,600,600,600,600,600,,0,,539.5,540.7,565.8,,49.88,,650500,,0.98,,398.1,403.8,403.4,,108413,-23802,,17,,4,17,,53,,78,,NaN,,21,,650500,680600,,29.3,30.3,,1549,1598,1517,,1.5,7.8,,OP,13,10.9
2/14/13 8:40,,600,600,600,600,600,600,600,,0,,547.5,545,569.3,,49.92,,657300,,0.98,,398.8,404,403.9,,109545,-24347,,18,,4,18,,55,,82,,NaN,,21,,657300,680200,,29.4,30.7,,1554,1627,1519,,3,9.8,,OP,14.1,11.1
2/14/13 8:50,,600,600,600,600,600,600,600,,0,,537.1,535.9,560.1,,49.92,,646500,,0.98,,398.9,404.2,403.9,,107745,-23528,,20,,4,19,,57,,85,,NaN,,22,,646500,682000,,29.3,30.4,,1552,1604,1517,,3.4,9.2,,OP,13.8,11.2
2/14/13 9:00,,600,600,600,600,600,600,600,,0,,532.5,529,554.5,,49.91,,639400,,0.98,,398.6,403.4,403.6,,106564,-23070,,21,,4,19,,58,,87,,NaN,,23,,639400,680800,,29.2,30.3,,1545,1599,1517,,1.2,8,,OP,12.8,10.7
2/14/13 9:10,,600,600,600,600,600,600,600,,0,,514,510.7,535.9,,49.93,,617900,,0.98,,398.4,403.1,403.5,,102989,-21564,,22,,4,20,,56,,88,,NaN,,24,,617900,680800,,29.1,30.3,,1540,1605,1514,,0.1,7.4,,OP,12.6,10.4
2/14/13 9:20,,600,600,600,600,600,600,600,,10,,541.1,539.1,564.1,,49.98,,649800,,0.98,,398.2,403.3,403.3,,108399,-23893,,23,,4,21,,55,,90,,NaN,,24,,649800,682500,,29.4,30.3,,1554,1600,1521,,2.4,8.6,,OP,13.3,11
2/14/13 9:30,,600,600,600,600,600,600,600,,0,,526,522.1,546.9,,49.98,,631100,,0.98,,398.2,403.1,403.7,,105077,-22338,,24,,4,21,,55,,92,,NaN,,25,,631100,680300,,29.3,30.6,,1547,1624,1519,,1.7,9.8,,OP,14.7,10.9
2/14/13 9:40,,600,600,600,600,600,600,600,,0,,550.3,543.7,570.6,,49.99,,657500,,0.98,,397.9,403.2,403.7,,109600,-24268,,24,,5,20,,58,,94,,NaN,,26,,657500,679400,,29.4,30.3,,1556,1599,1518,,2.6,8.1,,OP,13.2,11.2
2/14/13 9:50,,600,600,600,600,600,600,600,,10,,539.3,532.1,561.2,,49.99,,645300,,0.98,,397.5,403.4,403.8,,107525,-23398,,25,,4,22,,56,,96,,NaN,,26,,645300,680000,,29.3,30.3,,1551,1597,1515,,1.7,9.1,,OP,13.9,11.1
2/14/13 10:00,,600,600,600,600,600,600,600,,0,,553,545.5,571.5,,50,,659200,,0.98,,397.8,403.1,403.6,,109858,-24502,,26,,5,22,,56,,97,,NaN,,27,,659200,679800,,29.4,30.4,,1557,1611,1522,,3.4,8.5,,OP,13.6,11.5
2/14/13 10:10,,600,600,600,600,600,600,600,,0,,534.7,528,553.7,,49.98,,638300,,0.98,,397.5,402.6,403.2,,106478,-23100,,27,,5,23,,55,,98,,NaN,,28,,638300,680900,,29.2,30.3,,1547,1603,1519,,0.9,6.9,,OP,13.3,10.9
2/14/13 10:20,,600,600,600,600,600,600,600,,10,,507.8,501,527.2,,49.99,,608500,,0.98,,397.9,402.9,403.4,,101351,-20669,,28,,5,22,,56,,98,,NaN,,28,,608500,680600,,29.1,30.1,,1540,1593,1515,,0.3,7.4,,OP,13.1,10.6
2/14/13 10:30,,600,600,600,600,600,600,600,,0,,531.4,524.7,551,,50.02,,636100,,0.98,,398.4,402.9,404,,105980,-22668,,28,,5,21,,58,,99,,NaN,,29,,636100,680600,,29.2,30.3,,1546,1597,1518,,0.2,6.3,,OP,13.3,10.9
2/14/13 10:40,,600,600,600,600,600,600,600,,0,,492.2,486.3,510.9,,50.03,,592200,,0.98,,398.3,404.3,404.8,,98706,-19484,,29,,5,23,,56,,98,,NaN,,29,,592200,682000,,29,30.3,,1536,1597,1518,,-0.6,6.5,,OP,12.5,10.4
2/14/13 10:50,,600,600,600,600,600,600,600,,0,,506.3,499.8,525.4,,50.03,,608000,,0.98,,399.3,403,404.8,,101418,-20766,,29,,5,23,,55,,98,,NaN,,29,,608000,680800,,29.2,30.3,,1545,1599,1519,,0.5,6.7,,OP,13.1,10.6
2/14/13 11:00,,600,600,600,600,600,600,600,,0,,472.7,466.2,490.4,,50.01,,569200,,0.98,,398.9,404.1,404.4,,94772,-17879,,30,,5,23,,56,,97,,NaN,,30,,569200,682000,,29,30.2,,1535,1597,1517,,-0.7,4.3,,OP,13,10
2/14/13 11:10,,600,600,600,600,600,600,600,,0,,505.8,498.5,522.4,,49.97,,605100,,0.98,,398.3,403,403.9,,100966,-20700,,30,,5,23,,58,,98,,NaN,,30,,605100,680900,,29.1,30.1,,1541,1587,1514,,0.1,6.6,,OP,13,10.5
2/14/13 11:20,,600,600,600,600,600,600,600,,10,,508.6,500.4,525.2,,49.99,,608300,,0.98,,398.3,402.9,404,,101283,-20745,,30,,5,24,,56,,97,,NaN,,30,,608300,680800,,29.1,30.1,,1537,1592,1518,,-0.5,5.9,,OP,13,10.4
2/14/13 11:30,,600,600,600,600,600,600,600,,0,,537.6,529.4,552.9,,50.02,,641000,,0.98,,398.8,402.8,404.1,,106823,-23212,,31,,5,24,,55,,99,,NaN,,31,,641000,681100,,29.3,30.5,,1547,1606,1517,,0.7,7.1,,OP,13.5,10.9
2/14/13 11:40,,600,600,600,600,600,600,600,,0,,532.5,524,546.5,,50.06,,635500,,0.98,,399.8,403.3,404.3,,105913,-22733,,31,,5,24,,55,,100,,NaN,,31,,635500,681400,,29.3,30.2,,1550,1598,1522,,1.4,7.1,,OP,13.3,11
2/14/13 11:50,,600,600,600,600,600,600,600,,0,,548.3,538.8,562.3,,50.07,,653200,,0.98,,399.4,402.3,405.2,,108895,-24016,,31,,5,23,,56,,101,,NaN,,31,,653200,680500,,29.4,30.3,,1554,1603,1521,,1.6,8.7,,OP,13.8,11.1
2/14/13 12:00,,600,600,600,600,600,600,600,,0,,528.1,521.3,542.8,,50.08,,632200,,0.98,,398.9,404.2,406.1,,105325,-22328,,32,,6,23,,58,,102,,NaN,,31,,632200,679800,,29.2,30.4,,1546,1603,1521,,0.7,8.5,,OP,13.9,10.8
2/14/13 12:10,,590,590,590,590,590,590,590,,0,,548.5,542.3,564.6,,50.08,,655500,,0.98,,399.1,403.3,405.6,,107420,-23779,,32,,6,24,,56,,103,,NaN,,31,,655500,680900,,29.5,30.5,,1558,1615,1521,,3.1,8.2,,OP,14.3,11.5
2/14/13 12:20,,600,600,600,600,600,600,600,,10,,552.1,545.4,568.2,,50.06,,659800,,0.98,,399.6,402.7,405.2,,109977,-24615,,33,,5,25,,56,,104,,NaN,,32,,659800,674600,,29.5,30.5,,1561,1605,1530,,4.4,10.2,,OP,14,11.7
2/14/13 12:30,,600,600,600,600,600,600,600,,0,,552.8,546.6,567,,50.06,,659900,,0.98,,399.8,402.6,405.2,,109978,-24638,,34,,6,25,,55,,105,,NaN,,32,,659900,676500,,29.5,30.3,,1562,1602,1529,,6.2,10.5,,OP,14.9,12.3
2/14/13 12:40,,600,600,600,600,600,600,600,,0,,553.5,548.4,567.3,,50.05,,659900,,0.98,,399.5,401.9,404.6,,109986,-24717,,34,,6,25,,55,,106,,NaN,,32,,659900,680300,,29.5,30.5,,1561,1611,1525,,6.4,11.3,,OP,15.4,12.4
2/14/13 12:50,,600,600,600,600,600,600,600,,0,,555.3,547.8,567.1,,50.05,,659800,,0.98,,399.8,402.3,403.9,,109973,-24676,,35,,5,24,,55,,107,,NaN,,33,,659800,663100,,29.5,30.6,,1562,1613,1530,,8.5,13,,OP,16.3,13
2/14/13 13:00,,600,600,600,600,600,600,600,,0,,553.9,547.5,568.6,,50.07,,659800,,0.98,,399.8,402.9,403.6,,109974,-24602,,35,,6,25,,54,,107,,NaN,,33,,659800,668000,,29.5,30.4,,1562,1606,1529,,6.3,12.7,,OP,16.3,12.3
2/14/13 13:10,,600,600,600,600,600,600,600,,0,,553,548.9,566.3,,50.07,,659800,,0.98,,400.5,402.8,403.9,,109972,-24500,,36,,6,23,,57,,108,,NaN,,33,,659800,680500,,29.5,30.3,,1562,1602,1530,,7.6,12.3,,OP,15.5,12.7
2/14/13 13:20,,600,600,600,600,600,600,600,,0,,551.1,548.7,561,,50.1,,659800,,0.98,,402.3,404.4,405.2,,109975,-24500,,37,,5,24,,58,,108,,NaN,,33,,659800,675200,,29.6,30.3,,1563,1604,1529,,7.2,12.4,,OP,15.3,12.6
2/14/13 13:30,,600,600,600,600,600,600,600,,0,,547.9,547,560.1,,50.08,,657900,,0.98,,401,405.3,406.5,,109655,-24417,,37,,5,26,,57,,109,,NaN,,33,,657900,679000,,29.5,30.5,,1561,1612,1520,,5.3,10.8,,OP,14.6,12
2/14/13 13:40,,600,600,600,600,600,600,600,,0,,552,547.8,565.5,,50.02,,659900,,0.98,,400.7,403.8,404.9,,109979,-24642,,38,,5,26,,56,,109,,NaN,,33,,659900,670700,,29.5,30.4,,1560,1605,1529,,5.3,10.7,,OP,15.6,11.9
2/14/13 13:50,,600,600,600,600,600,600,600,,0,,548.4,548.2,565.5,,50.03,,659800,,0.98,,400.3,404.8,406,,109974,-24546,,38,,5,26,,56,,109,,NaN,,34,,659800,663200,,29.5,30.3,,1561,1597,1533,,7.1,11.9,,OP,15.5,12.5
2/14/13 14:00,,600,600,600,600,600,600,600,,0,,549.1,547.5,567,,50,,659800,,0.98,,400.6,404.9,404.8,,109974,-24508,,39,,5,26,,55,,110,,NaN,,34,,659800,663400,,29.5,30.4,,1560,1607,1529,,7.8,11.6,,OP,16,12.9
2/14/13 14:10,,600,600,600,600,600,600,600,,0,,548.2,549.5,568.4,,49.97,,659900,,0.98,,400.1,404.3,404.2,,109978,-24570,,39,,5,25,,55,,110,,NaN,,34,,659900,663700,,29.5,30.3,,1559,1599,1528,,9.4,13,,OP,16.2,13.4
2/14/13 14:20,,600,600,600,600,600,600,600,,10,,547.5,549.6,568,,49.98,,659900,,0.98,,400.3,404.5,404.5,,109984,-24569,,39,,5,26,,55,,111,,NaN,,35,,659900,663900,,29.5,30.6,,1560,1628,1528,,8.3,13.4,,OP,15.3,12.5
2/14/13 14:30,,600,600,600,600,600,600,600,,0,,547,547.7,567.1,,49.99,,659200,,0.98,,400.7,404.7,405.1,,109865,-24421,,40,,6,25,,55,,110,,NaN,,35,,659200,680400,,29.5,30.5,,1559,1616,1524,,6.3,12.3,,OP,15.7,12.1
2/14/13 14:40,,600,600,600,600,600,600,600,,0,,548.3,548,566.7,,50,,659800,,0.98,,400.8,404.5,405,,109973,-24384,,40,,5,24,,57,,110,,NaN,,35,,659800,662800,,29.5,30.7,,1560,1625,1528,,7.4,12.9,,OP,15.6,12.3
2/14/13 14:50,,600,600,600,600,600,600,600,,0,,546.9,548.5,565.9,,50.02,,659900,,0.98,,400.8,404.9,405.7,,109976,-24410,,40,,5,25,,58,,111,,NaN,,35,,659900,663300,,29.5,30.2,,1560,1595,1526,,8.8,12.4,,OP,15.4,12.7
2/14/13 15:00,,600,600,600,600,600,600,600,,0,,548.7,547.6,563.3,,50.04,,659900,,0.98,,402.4,405.3,405.3,,109976,-24479,,41,,5,25,,57,,111,,NaN,,35,,659900,663200,,29.5,30.7,,1562,1617,1528,,9.2,12.7,,OP,16.1,13.1
2/14/13 15:10,,600,600,600,600,600,600,600,,10,,548.1,547.9,563.4,,50.05,,659800,,0.98,,402.1,406.2,405.4,,109971,-24415,,41,,5,26,,56,,111,,NaN,,35,,659800,670800,,29.5,30.4,,1562,1614,1520,,9.1,12.9,,OP,16,13.3
2/14/13 15:20,,600,600,600,600,600,600,600,,0,,545.5,548.3,562.3,,50.09,,659800,,0.98,,401.4,406.4,406.8,,109972,-24367,,41,,5,25,,56,,111,,NaN,,34,,659800,670000,,29.6,30.4,,1563,1609,1527,,8.1,12.3,,OP,15.9,13
2/14/13 15:30,,600,600,600,600,600,600,600,,0,,542.9,545,562.3,,50.08,,659900,,0.98,,403.7,406.8,408.5,,109976,-24216,,41,,5,25,,55,,111,,NaN,,34,,659900,663000,,29.6,30.4,,1563,1603,1530,,9.1,13.7,,OP,16,13.5
2/14/13 15:40,,600,600,600,600,600,600,600,,0,,543.6,544.5,560.8,,50.07,,659900,,0.98,,404.1,407.2,409.3,,109980,-24246,,41,,5,26,,55,,111,,NaN,,34,,659900,663700,,29.5,30.4,,1562,1606,1533,,8.6,13.5,,OP,16.6,13.2
2/14/13 15:50,,600,600,600,600,600,600,600,,0,,545.7,542.8,561.9,,50.05,,659900,,0.98,,403.7,406.1,408.8,,109982,-24296,,42,,5,25,,55,,111,,NaN,,34,,659900,662500,,29.5,30.4,,1562,1608,1523,,10.9,13.6,,OP,16.9,14.3
2/14/13 16:00,,600,600,600,600,600,600,600,,30,,546.4,543.4,560.8,,50.04,,659900,,0.98,,404.6,406.6,408.3,,109975,-24397,,42,,5,26,,55,,111,,NaN,,34,,659900,663500,,29.5,30.5,,1562,1613,1519,,9.8,14,,OP,16.9,13.7
2/14/13 16:10,,600,600,600,600,600,600,600,,0,,546.3,545.8,557.9,,50.04,,659900,,0.98,,404,407.6,407.8,,109988,-24341,,42,,5,24,,55,,111,,NaN,,34,,659900,662900,,29.5,30.3,,1561,1601,1523,,9.9,14.2,,OP,17.5,13.8
2/14/13 16:20,,600,600,600,600,600,600,600,,10,,545.4,545.6,559.9,,50.02,,659800,,0.98,,403.6,406.6,408.3,,109962,-24291,,42,,5,24,,57,,111,,NaN,,34,,659800,662800,,29.5,30.4,,1561,1618,1527,,10.9,14.9,,OP,17.9,14.2
2/14/13 16:30,,600,600,600,600,600,600,600,,10,,545.7,545.2,558.9,,50.03,,659900,,0.98,,403.7,407.7,407.8,,109976,-24248,,42,,5,25,,59,,111,,NaN,,34,,659900,670700,,29.5,30.7,,1561,1623,1513,,12,16.1,,OP,18.3,14.8
2/14/13 16:40,,600,600,600,600,600,600,600,,10,,545.4,543.7,559.9,,50.04,,659900,,0.98,,403.5,407.7,409.6,,109980,-24324,,42,,4,25,,57,,112,,NaN,,34,,659900,662800,,29.5,30.3,,1562,1601,1521,,12.1,16.1,,OP,18.2,14.9
2/14/13 16:50,,600,600,600,600,600,600,600,,0,,544.6,542.8,560,,50.05,,659800,,0.98,,404.3,407.3,409.9,,109970,-24245,,42,,5,24,,57,,112,,NaN,,34,,659800,663000,,29.5,30.4,,1562,1607,1529,,12,16.1,,OP,18.6,15
2/14/13 17:00,,600,600,600,600,600,600,600,,10,,543.4,543.2,560,,50.04,,659900,,0.98,,403.8,408.5,409.8,,109977,-24268,,42,,4,24,,56,,112,,NaN,,34,,659900,663800,,29.5,30.5,,1562,1610,1520,,11.8,16.4,,OP,18.4,14.7
2/14/13 17:10,,600,600,600,600,600,600,600,,10,,545.4,543.3,560.4,,50.02,,659900,,0.98,,404.4,407.8,408.1,,109979,-24320,,42,,4,24,,56,,112,,NaN,,34,,659900,667100,,29.5,30.8,,1561,1622,1520,,12.7,16.4,,OP,19.1,15.3
2/14/13 17:20,,600,600,600,600,600,600,600,,20,,543.3,544.5,559,,50.04,,659900,,0.98,,403.5,408.3,409.2,,109980,-24316,,42,,4,24,,56,,112,,NaN,,34,,659900,662500,,29.5,30.5,,1562,1608,1518,,13.6,17.6,,OP,19.4,15.8
2/14/13 17:30,,600,600,600,600,600,600,600,,10,,543,543.7,560.3,,50.03,,659800,,0.98,,403.9,408.2,409.5,,109978,-24288,,42,,5,23,,55,,111,,NaN,,33,,659800,662900,,29.5,30.7,,1561,1625,1517,,12.7,16.9,,OP,19.7,15.4
2/14/13 17:40,,600,600,600,600,600,600,600,,20,,543.9,545.4,561.7,,49.99,,659800,,0.98,,403.6,407.4,407.9,,109968,-24367,,42,,4,24,,55,,112,,NaN,,33,,659800,663600,,29.5,30.6,,1560,1618,1518,,13.2,17.3,,OP,18.8,15.5
2/14/13 17:50,,600,600,600,600,600,600,600,,10,,543.8,544.3,561.1,,50,,659900,,0.98,,404.1,407.9,408.2,,109981,-24328,,42,,4,23,,55,,112,,NaN,,33,,659900,662700,,29.5,30.6,,1560,1622,1523,,13,17.3,,OP,19.3,15.5
2/14/13 18:00,,600,600,600,600,600,600,600,,0,,544.7,542.8,561.4,,50.01,,659800,,0.98,,404.2,407.7,408.4,,109971,-24298,,42,,4,25,,55,,111,,NaN,,33,,659800,662800,,29.5,30.5,,1560,1606,1522,,12.4,16,,OP,17.8,15
2/14/13 18:10,,600,600,600,600,600,600,600,,10,,545.3,543,561.1,,50.01,,659800,,0.98,,404.1,407.3,408.5,,109970,-24306,,42,,4,24,,54,,111,,NaN,,33,,659800,662600,,29.5,30.4,,1561,1603,1519,,12.2,15.8,,OP,18.5,15
2/14/13 18:20,,600,600,600,600,600,600,600,,10,,544.7,543.9,558.8,,50.03,,659800,,0.98,,404.1,408.4,408.6,,109971,-24113,,42,,4,23,,56,,111,,NaN,,33,,659800,663500,,29.5,30.5,,1561,1615,1522,,11.7,16,,OP,18.2,14.6
2/14/13 18:30,,600,600,600,600,600,600,600,,0,,545.1,542.6,561.7,,50.01,,659900,,0.98,,403.9,407.2,408.8,,109979,-24143,,42,,5,23,,58,,111,,NaN,,33,,659900,669700,,29.5,30.3,,1561,1610,1519,,11.2,16,,OP,18.4,14.3
2/14/13 18:40,,600,600,600,600,600,600,600,,0,,547.7,543,560.9,,49.99,,659900,,0.98,,403.3,407,408.3,,109990,-24406,,42,,4,25,,58,,111,,NaN,,33,,659900,662800,,29.5,30.5,,1560,1616,1523,,14.1,17.3,,OP,19.6,16.1
2/14/13 18:50,,600,600,600,600,600,600,600,,0,,545.3,542.9,560.6,,50.01,,659900,,0.98,,403.7,407.5,408.9,,109979,-24321,,42,,4,24,,57,,112,,NaN,,33,,659900,675300,,29.5,30.5,,1561,1610,1511,,14.3,17.5,,OP,19.5,16.4
2/14/13 19:00,,600,600,600,600,600,600,600,,10,,545.8,542.4,559.7,,50.02,,659900,,0.98,,404.3,408.3,408.6,,109986,-24316,,42,,4,24,,56,,112,,NaN,,33,,659900,664900,,29.5,30.5,,1561,1614,1519,,14.3,17.2,,OP,19.6,16.3
2/14/13 19:10,,600,600,600,600,600,600,600,,0,,544.6,543,558.9,,50.03,,659900,,0.98,,404.4,407.7,409.9,,109980,-24318,,42,,5,23,,56,,112,,NaN,,33,,659900,670500,,29.5,30.8,,1561,1627,1514,,14.3,18.3,,OP,21,16.3
2/14/13 19:20,,600,600,600,600,600,600,600,,10,,546.2,541.9,557.8,,50.03,,659900,,0.98,,405.4,408.1,409,,109973,-24311,,42,,4,23,,56,,112,,NaN,,33,,659900,664200,,29.5,30.7,,1561,1622,1526,,12.4,15.8,,OP,18.7,15.1
2/14/13 19:30,,600,600,600,600,600,600,600,,10,,543.6,542.2,559.6,,50.01,,659800,,0.98,,404.7,408.2,409.8,,109977,-24295,,42,,4,23,,56,,111,,NaN,,33,,659800,662600,,29.5,30.5,,1561,1611,1516,,16.4,18.9,,OP,20.6,17.7
2/14/13 19:40,,600,600,600,600,600,600,600,,10,,543.2,543.9,562.1,,49.99,,659800,,0.98,,403.7,408.1,408.1,,109976,-24317,,42,,4,24,,55,,111,,NaN,,33,,659800,663500,,29.5,30.6,,1560,1622,1524,,13.1,17.8,,OP,19.3,15.5
2/14/13 19:50,,600,600,600,600,600,600,600,,10,,542.3,543.9,565.4,,49.94,,659800,,0.98,,403,407.7,407.6,,109974,-24329,,42,,4,22,,55,,111,,NaN,,33,,659800,669200,,29.5,30.6,,1559,1621,1513,,16.1,18.7,,OP,20.2,17.5
2/14/13 20:00,,600,600,600,600,600,600,600,,10,,542.6,542.8,566.3,,49.94,,659900,,0.98,,402.9,407.9,407.5,,109985,-24306,,42,,4,23,,55,,111,,NaN,,33,,659900,662900,,29.5,30.6,,1558,1611,1516,,14.5,18.4,,OP,20,16.4
2/14/13 20:10,,600,600,600,600,600,600,600,,0,,543.9,540.6,568.2,,49.94,,659900,,0.98,,402.3,407.7,407.6,,109980,-24227,,42,,4,23,,55,,111,,NaN,,33,,659900,681000,,29.5,30.6,,1559,1618,1510,,16.5,20,,OP,20.9,17.8
2/14/13 20:20,,600,600,600,600,600,600,600,,30,,544.1,541.7,565.9,,49.96,,659900,,0.98,,402.9,407.6,407.9,,109979,-24305,,42,,4,23,,55,,111,,NaN,,33,,659900,664000,,29.5,30.4,,1559,1610,1520,,15.6,19.6,,OP,20.4,17.1
2/14/13 20:30,,600,600,600,600,600,600,600,,20,,543.1,540.8,566.8,,49.99,,659900,,0.98,,403,408,407.9,,109987,-24173,,42,,4,23,,55,,111,,NaN,,33,,659900,663000,,29.5,30.4,,1559,1606,1522,,14.5,19.1,,OP,20.5,16.5
2/14/13 20:40,,600,600,600,600,600,600,600,,0,,543.5,540.4,566.5,,50.01,,659900,,0.98,,402.7,407.8,408.3,,109980,-24147,,42,,5,23,,55,,111,,NaN,,33,,659900,663200,,29.5,30.7,,1561,1627,1520,,13.8,17.2,,OP,19.5,16
2/14/13 20:50,,600,600,600,600,600,600,600,,0,,544.1,540.5,565.5,,50.02,,659900,,0.98,,402.6,408.1,408.4,,109980,-24052,,42,,4,23,,55,,111,,NaN,,33,,659900,663100,,29.5,30.3,,1561,1602,1520,,13.9,17.3,,OP,19,16
2/14/13 21:00,,600,600,600,600,600,600,600,,0,,546.3,538.6,563.3,,50.03,,659800,,0.98,,403.7,407.4,408.7,,109976,-24029,,42,,4,21,,56,,111,,NaN,,33,,659800,663200,,29.5,30.3,,1561,1603,1522,,15.1,18.9,,OP,20.2,16.9
2/14/13 21:10,,600,600,600,600,600,600,600,,20,,546.8,540.6,561.1,,50.03,,659800,,0.98,,403.4,408.1,408.3,,109971,-24110,,42,,5,22,,58,,111,,NaN,,33,,659800,680900,,29.5,30.6,,1562,1625,1512,,14.9,19.4,,OP,20.9,16.7
2/14/13 21:20,,600,600,600,600,600,600,600,,10,,544.1,542.1,561.9,,50.04,,659800,,0.98,,403.1,408.1,409.5,,109974,-24128,,42,,5,22,,58,,111,,NaN,,32,,659800,684500,,29.5,30.6,,1562,1610,1518,,15.9,19.8,,OP,20.6,17.4
2/14/13 21:30,,600,600,600,600,600,600,600,,0,,544.7,540.3,562,,50.05,,659800,,0.98,,404.3,407,409.5,,109976,-24291,,42,,5,22,,58,,112,,NaN,,32,,659800,676100,,29.5,31.2,,1562,1649,1515,,16,19.4,,OP,20.8,17.3
2/14/13 21:40,,600,600,600,600,600,600,600,,10,,544.3,540,563.2,,50.05,,659900,,0.98,,404.2,407.1,409.5,,109981,-24213,,42,,5,24,,57,,112,,NaN,,33,,659900,670700,,29.5,30.8,,1562,1621,1513,,15.4,18.8,,OP,20.4,17
2/14/13 21:50,,600,600,600,600,600,600,600,,20,,543.8,540.7,563.5,,50.05,,659900,,0.98,,404.8,407.7,409.1,,109981,-24222,,42,,4,25,,57,,112,,NaN,,33,,659900,666400,,29.5,31.1,,1562,1648,1520,,11.9,15.8,,OP,18.3,14.8
2/14/13 22:00,,600,600,600,600,600,600,600,,10,,544.1,541.1,561.5,,50.05,,659800,,0.98,,404.6,408.6,407.9,,109976,-24225,,42,,5,24,,56,,112,,NaN,,33,,659800,669600,,29.5,30.9,,1562,1631,1516,,12.2,17.1,,OP,19.4,15
2/14/13 22:10,,600,600,600,600,600,600,600,,30,,542.2,543.2,561.9,,50.05,,659800,,0.98,,404.8,409,407.9,,109985,-24238,,42,,4,24,,56,,112,,NaN,,33,,659800,687700,,29.6,30.7,,1563,1624,1517,,14.7,19.6,,OP,20.7,16.5
2/14/13 22:20,,600,600,600,600,600,600,600,,40,,541.1,541,562.5,,50.07,,659900,,0.98,,405.6,409.2,408.6,,109978,-24202,,42,,4,23,,56,,112,,NaN,,33,,659900,698300,,29.6,30.9,,1563,1644,1512,,14.2,18.2,,OP,19.8,16
2/14/13 22:30,,600,600,600,600,600,600,600,,10,,541.4,540.6,561.4,,50.06,,659800,,0.98,,405.6,409.3,408.5,,109958,-24176,,42,,4,24,,55,,111,,NaN,,33,,659800,724500,,29.6,30.7,,1563,1633,1511,,15,18.9,,OP,20.1,16.7
2/14/13 22:40,,600,600,600,600,600,600,600,,20,,544.2,538.9,561.9,,50.04,,659800,,0.98,,404.6,409.2,408.6,,109977,-24192,,42,,4,24,,55,,111,,NaN,,33,,659800,669400,,29.5,30.9,,1562,1652,1516,,13.1,17.7,,OP,19.6,15.6
2/14/13 22:50,,600,600,600,600,600,600,600,,30,,542.7,539.8,562.2,,50.05,,659800,,0.98,,404.1,410.1,409.6,,109970,-24183,,42,,4,24,,55,,111,,NaN,,33,,659800,685600,,29.6,31.3,,1563,1653,1513,,14.5,18.6,,OP,19.9,16.4
2/14/13 23:00,,600,600,600,600,600,600,600,,20,,541,539,561.9,,50.06,,659800,,0.98,,404.2,410.8,410.2,,109972,-24087,,42,,4,23,,55,,111,,NaN,,34,,659800,677400,,29.6,31.1,,1563,1644,1516,,13.4,18,,OP,19.7,15.6
2/14/13 23:10,,600,600,600,600,600,600,600,,20,,538.5,539.3,562.2,,50.07,,659900,,0.98,,404.4,410.7,410.8,,109976,-24077,,42,,4,23,,55,,111,,NaN,,34,,659900,702900,,29.6,30.7,,1563,1628,1515,,13.5,19.1,,OP,21.4,15.8
2/14/13 23:20,,600,600,600,600,600,600,600,,10,,537.5,539.5,562.6,,50.09,,659800,,0.98,,405.1,410.6,411.1,,109976,-24027,,42,,4,24,,55,,111,,NaN,,34,,659800,667900,,29.6,31,,1564,1634,1520,,13.8,18.8,,OP,19.8,15.9
2/14/13 23:30,,600,600,600,600,600,600,600,,20,,540.1,539.1,562.4,,50.09,,659800,,0.98,,405.7,409.2,410,,109976,-24008,,43,,4,23,,55,,111,,NaN,,33,,659800,667000,,29.6,31.1,,1564,1644,1517,,12.4,18.4,,OP,20.2,15.2
2/14/13 23:40,,600,600,600,600,600,600,600,,10,,539.5,542.9,563.3,,50.09,,659900,,0.98,,404.8,409.1,407.8,,109976,-24004,,43,,4,23,,57,,111,,NaN,,33,,659900,681000,,29.6,31.2,,1564,1649,1518,,10.7,17.3,,OP,18,13.6
2/14/13 23:50,,600,600,600,600,600,600,600,,0,,536.8,543.9,563.2,,50.1,,659800,,0.98,,404.1,409.9,408.9,,109967,-23878,,43,,4,23,,58,,111,,NaN,,33,,659800,690300,,29.6,30.9,,1565,1630,1514,,13.1,19.1,,OP,19.1,14.9
2/15/13 0:00,,600,600,600,600,600,600,600,,20,,540.2,542.2,563.6,,50.1,,659900,,0.98,,404.9,408.4,409.1,,109981,-24114,,43,,4,23,,58,,112,,NaN,,33,,659900,666400,,29.6,30.8,,1564,1624,1519,,13.7,18.5,,OP,20,15.5
2/15/13 0:10,,600,600,600,600,600,600,600,,20,,541.8,541.8,561.4,,50.08,,659900,,0.98,,404.9,409.1,408,,109977,-24173,,43,,4,23,,57,,112,,NaN,,33,,659900,666600,,29.6,30.8,,1563,1638,1516,,13.4,18.2,,OP,19.6,15.7
2/15/13 0:20,,600,600,600,600,600,600,600,,0,,541.7,541.3,562,,50.1,,659900,,0.98,,404.1,409.7,409.5,,109980,-24137,,43,,4,25,,57,,112,,NaN,,33,,659900,682900,,29.6,30.8,,1564,1627,1514,,12.9,16.8,,OP,18.8,15.2
2/15/13 0:30,,600,600,600,600,600,600,600,,30,,542.6,539.7,562.7,,50.09,,659900,,0.98,,404.7,408.1,409.9,,109984,-24173,,43,,4,24,,56,,111,,NaN,,33,,659900,687000,,29.6,30.8,,1564,1629,1516,,13.8,18.6,,OP,20.1,15.6
2/15/13 0:40,,600,600,600,600,600,600,600,,0,,542.3,540.9,562,,50.08,,659800,,0.98,,405.2,408.4,409.2,,109972,-24190,,43,,4,24,,56,,111,,NaN,,33,,659800,666900,,29.6,30.9,,1564,1636,1516,,14.2,18.1,,OP,20.6,15.6
2/15/13 9:30,,600,600,600,600,600,600,600,,0,,534.4,530.3,557.4,,50.02,,647300,,0.98,,402.1,406.1,407.6,,108133,-23535,,31,,4,21,,55,,79,,205,,28,,647300,681300,,29.4,30.3,,1553,1603,1521,,2.5,10.8,,OP,14.7,11.1
2/15/13 9:40,,600,600,600,600,600,600,600,,30,,482.6,476.7,504.7,,49.96,,587500,,0.98,,402.1,407.6,408.1,,98019,-19170,,31,,4,21,,56,,81,,205,,29,,587500,679900,,29.1,30.3,,1538,1595,1516,,0,8.1,,OP,12.9,10.2
2/15/13 9:50,,600,600,600,600,600,600,600,,0,,487.9,480,509.6,,50.01,,592900,,0.98,,402.2,408,408.1,,98463,-19285,,31,,5,20,,58,,82,,205,,29,,592900,682000,,29.1,30.3,,1539,1609,1517,,-0.3,7.7,,OP,12.7,10.3
2/15/13 10:00,,600,600,600,600,600,600,600,,0,,537.5,533,561.5,,50.02,,651700,,0.98,,402.6,407.2,407.4,,108617,-23704,,32,,5,21,,57,,85,,205,,29,,651700,680600,,29.4,30.3,,1556,1604,1522,,4,10.4,,OP,14.4,11.5
2/15/13 10:10,,600,600,600,600,600,600,600,,10,,528.5,524.8,550.7,,50.01,,640800,,0.98,,402,407.4,407.8,,107198,-23121,,32,,5,22,,56,,89,,205,,30,,640800,680200,,29.4,30.3,,1553,1603,1520,,2.8,8.8,,OP,13.4,11.3
2/15/13 10:20,,600,600,600,600,600,600,600,,0,,467.1,462.7,486.6,,50.01,,569800,,0.99,,402.7,407.8,408.4,,94618,-17666,,32,,5,22,,55,,88,,205,,30,,569800,680700,,28.9,29.8,,1529,1576,1518,,-1.1,2.5,,OP,12.1,10.3
2/15/13 10:30,,600,600,600,600,600,600,600,,0,,529.6,522.3,546.9,,50.03,,639900,,0.98,,403.3,407,408,,106611,-22703,,32,,5,21,,58,,89,,205,,30,,639900,680300,,29.3,30.2,,1548,1591,1521,,0.3,5.4,,OP,13.3,10.8
2/15/13 10:50,,600,600,600,600,600,600,600,,10,,388.5,383.7,406.8,,50.04,,478600,,0.99,,404.6,407.9,408.9,,79729,-11953,,33,,5,23,,55,,86,,205,,31,,478600,677500,,28.9,29.5,,1526,1560,1514,,-1,0.5,,OP,11.9,9.1
2/15/13 11:00,,600,600,600,600,600,600,600,,20,,477.9,472.8,495.3,,50.06,,581100,,0.98,,403.9,407.3,408,,96406,-18431,,33,,5,22,,58,,86,,205,,31,,581100,680400,,29.1,30.2,,1538,1601,1514,,-0.3,6,,OP,13.1,10
2/15/13 11:10,,600,600,600,600,600,600,600,,10,,543.4,540.5,561,,50.03,,656200,,0.98,,401.8,407,407.8,,109634,-24274,,33,,5,22,,57,,89,,205,,31,,656200,679800,,29.5,30.4,,1558,1609,1521,,3.9,10.2,,OP,14.3,11.6
2/15/13 11:20,,600,600,600,600,600,600,600,,20,,477.9,470.1,492.6,,50.04,,578600,,0.98,,403.3,406.1,408.9,,96202,-18728,,33,,5,24,,55,,92,,205,,31,,578600,680400,,29.1,30.3,,1540,1597,1514,,0,5.7,,OP,12.5,10.2
2/15/13 11:30,,600,600,600,600,600,600,600,,30,,509.7,502.4,521.3,,50.07,,614200,,0.98,,403.8,406.9,407.6,,102327,-21321,,33,,5,23,,55,,91,,205,,32,,614200,681200,,29.3,30.4,,1547,1604,1513,,1.3,10.6,,OP,14.7,10.7
2/15/13 11:50,,600,600,600,600,600,600,600,,0,,490.3,483.8,502.1,,50.1,,593600,,0.98,,403.9,406.2,409.5,,98938,-19569,,34,,6,23,,55,,95,,205,,32,,593600,681000,,29.1,30.4,,1540,1607,1519,,0,6.7,,OP,13.3,10.4
2/15/13 12:20,,600,600,600,600,600,600,600,,0,,523.2,522.1,535.7,,50.13,,633000,,0.98,,403.2,406.9,408.6,,105627,-22480,,35,,6,23,,55,,91,,205,,32,,633000,681500,,29.3,30.2,,1549,1595,1523,,0.5,7.4,,OP,13.5,10.7
2/15/13 12:30,,600,600,600,600,600,600,600,,0,,530.9,528.3,539.8,,50.11,,639500,,0.98,,404.1,406.6,407.4,,107116,-23190,,35,,6,23,,54,,95,,205,,32,,639500,681400,,29.4,30.5,,1554,1617,1521,,2,8.6,,OP,13.7,10.9
2/15/13 12:50,,600,600,600,600,600,600,600,,10,,542.4,541.4,553.5,,50.09,,645500,,0.97,,401.6,406.3,406.6,,107587,-26110,,35,,7,23,,58,,99,,205,,33,,645500,680600,,29.4,30.4,,1555,1603,1517,,1.9,7.7,,OP,13.8,11
2/15/13 13:00,,600,600,600,600,600,600,600,,10,,467.5,465,478.8,,50.09,,564900,,0.98,,403.9,407.1,406.9,,94598,-19579,,36,,6,24,,56,,99,,205,,33,,564900,681200,,29.1,30.5,,1541,1611,1517,,0.7,9.4,,OP,13.6,10.2
2/15/13 13:20,,600,600,600,600,600,600,600,,0,,525,525.1,541.6,,50.1,,636200,,0.98,,402.9,406.2,408.2,,106296,-22848,,36,,6,24,,54,,98,,205,,33,,636200,681700,,29.4,30.5,,1556,1618,1516,,3.3,11.5,,OP,13.8,11
2/15/13 13:30,,600,600,600,600,600,600,600,,0,,516.6,513.8,531.4,,50.04,,624500,,0.98,,403.1,405.8,407.5,,103698,-21670,,37,,6,23,,57,,99,,205,,33,,624500,681700,,29.3,30.4,,1550,1608,1514,,3,10.4,,OP,14.1,11.1
2/15/13 13:50,,600,600,600,600,600,600,600,,10,,542.6,540.4,564.4,,49.95,,655400,,0.98,,401.2,406.1,406.3,,109316,-24207,,37,,6,25,,57,,102,,205,,33,,655400,679800,,29.4,30.5,,1555,1609,1519,,4.4,10.8,,OP,14.5,11.5
2/15/13 14:00,,600,600,600,600,600,600,600,,0,,490.3,487.5,514.6,,49.92,,596400,,0.98,,401.4,406.4,406.8,,99971,-20196,,38,,5,25,,56,,102,,205,,33,,596400,682000,,29.1,30.2,,1537,1595,1511,,0,7,,OP,14.1,10.4
2/15/13 14:20,,600,600,600,600,600,600,600,,0,,530.5,530.2,554.7,,49.96,,642800,,0.98,,400.9,406.1,405.8,,107150,-23174,,38,,5,25,,55,,103,,205,,34,,642800,680500,,29.3,30.1,,1551,1596,1518,,3.3,9.5,,OP,14,11.4
2/15/13 14:30,,600,600,600,600,600,600,600,,10,,437.1,435.1,461,,49.95,,535900,,0.99,,401.6,406.7,406.7,,89627,-15645,,39,,5,24,,56,,101,,205,,34,,535900,679600,,28.9,29.8,,1526,1577,1511,,-1.2,1.9,,OP,12.3,9.7
2/15/13 14:40,,600,600,600,600,600,600,600,,20,,429.4,429,454.6,,49.95,,527300,,0.99,,401.7,406.7,406.5,,88534,-15563,,38,,6,23,,58,,98,,205,,34,,527300,680800,,28.9,29.9,,1529,1583,1508,,-0.6,5.3,,OP,12.6,9.7
2/15/13 14:50,,600,600,600,600,600,600,600,,0,,390.8,390.7,412.3,,49.98,,482300,,0.99,,402.7,406.9,407.1,,79555,-11955,,38,,5,24,,55,,94,,205,,34,,482300,664100,,28.8,29.3,,1524,1546,1510,,-1,0.6,,OP,11.9,9.3
2/15/13 15:00,,600,600,600,600,600,600,600,,20,,405.3,404.3,427.6,,50,,498700,,0.99,,402.7,407.1,407.4,,83076,-13462,,38,,5,24,,55,,93,,205,,34,,498700,680900,,28.9,30.2,,1528,1598,1509,,-0.7,5.3,,OP,12.3,9.5
2/15/13 15:10,,600,600,600,600,600,600,600,,0,,409.6,409.9,434.2,,50.03,,506400,,0.99,,402.7,407.2,407.9,,84633,-13476,,38,,6,23,,58,,91,,205,,33,,506400,678300,,28.9,29.5,,1526,1559,1512,,-1.1,0.1,,OP,12.2,9.6
2/15/13 15:20,,600,600,600,600,600,600,600,,20,,425.2,425,449.9,,50.03,,523500,,0.99,,402.2,408,406.9,,87217,-14878,,38,,5,24,,56,,89,,205,,33,,523500,679600,,28.9,29.8,,1529,1574,1515,,-1.1,1.5,,OP,12,9.6
2/15/13 15:30,,600,600,600,600,600,600,600,,30,,318.8,318,345,,50,,398500,,0.99,,402.6,407.8,407.6,,66790,-8024,,37,,5,24,,55,,88,,205,,33,,398500,677500,,28.8,29.3,,1521,1547,1506,,-0.5,1.5,,OP,11.4,8.5
2/15/13 15:50,,600,600,600,600,600,600,600,,0,,274.1,271,298.6,,49.96,,344800,,1,,402.3,407.6,407.7,,57506,-4453,,37,,5,22,,59,,80,,205,,33,,344800,490200,,28.7,29,,1517,1527,1510,,-0.3,0.6,,OP,10.1,8.2
2/15/13 16:20,,600,600,600,600,600,600,600,,0,,111.9,102.1,131.3,,49.9,,140400,,1,,401.7,406.9,407.3,,23546,2149,,36,,4,22,,57,,67,,205,,32,,140400,305500,,28.5,28.8,,1507,1518,1502,,1.1,1.9,,OP,7.7,6.1
2/15/13 16:30,,600,600,600,600,600,600,600,,50,,121.8,110.9,141.8,,49.91,,152100,,1,,401.5,407.2,407.3,,25313,1763,,35,,4,22,,57,,63,,205,,32,,152100,340300,,28.5,28.8,,1508,1519,1501,,1,1.9,,OP,8.8,6.2
2/15/13 16:50,,600,600,600,600,600,600,600,,30,,92.1,76.6,106.1,,49.98,,110300,,0.98,,402.4,407.6,408.4,,18415,2718,,34,,4,22,,57,,58,,205,,32,,110300,275200,,28.5,28.7,,1508,1516,1502,,1.4,2.2,,OP,7.8,5.7
2/15/13 17:00,,600,600,600,600,600,600,600,,60,,108,94,123.9,,49.98,,132400,,1,,402.4,407.5,408.4,,22068,2341,,34,,4,21,,57,,56,,205,,32,,132400,289000,,28.5,28.8,,1509,1519,1504,,1.2,2,,OP,7.9,6
2/15/13 17:20,,600,600,600,600,600,600,600,,80,,83.3,65.1,99.7,,50,,98300,,0.97,,402,407.9,408.2,,16404,2835,,33,,4,21,,57,,53,,205,,31,,98300,207700,,28.5,28.8,,1508,1516,1501,,1.5,2.2,,OP,7.5,5.6
2/15/13 17:30,,600,600,600,600,600,600,600,,20,,76.2,57.7,90.5,,49.97,,88400,,0.97,,401.9,407.5,408.3,,14725,3008,,33,,4,21,,57,,51,,205,,31,,88400,208500,,28.5,28.7,,1507,1515,1499,,1.6,2.2,,OP,7,5.5
2/15/13 17:50,,600,600,600,600,600,600,600,,20,,54.9,34.3,68.8,,49.92,,58300,,0.91,,401.1,407.3,407.4,,9722,3181,,32,,4,21,,56,,49,,205,,31,,58300,116800,,28.4,28.6,,1504,1508,1498,,1.7,2.2,,OP,6.4,5.2
2/15/13 18:00,,600,600,600,600,600,600,600,,10,,43.9,18,53,,49.93,,36700,,0.78,,401,407.4,407.1,,6116,3419,,32,,4,20,,56,,47,,205,,31,,36700,65700,,28.4,28.5,,1503,1506,1499,,1.9,2.2,,CUTIN,5.6,4.9
2/15/13 18:10,,600,560,600,600,600,600,600,,40,,37.4,10.2,37.3,,49.92,,17700,,0.51,,400.8,407.2,406.7,,2975,3421,,31,,4,20,,55,,46,,205,,30,,17700,43800,,28.4,28.5,,1501,1505,1482,,2,4.4,,CUTIN,5.4,4.6
2/15/13 18:20,,600,300,600,600,600,600,470,,50,,32.9,27.4,43.3,,49.95,,38600,,0.91,,400.6,407.1,406.4,,6485,416,,31,,4,20,,54,,44,,205,,30,,38600,162800,,28.4,29,,1501,1531,1475,,2.7,6.1,,CUTIN,6.3,4.7
2/15/13 18:30,,600,600,600,600,600,600,600,,30,,43.3,16.5,46.2,,49.93,,31200,,0.72,,401.2,407,407.1,,5202,3555,,31,,3,19,,54,,43,,205,,30,,31200,113800,,28.4,28.6,,1503,1508,1499,,1.9,2.2,,CUTIN,6.1,4.7
2/15/13 18:50,,590,590,590,590,590,590,590,,0,,148.8,141.9,171.1,,49.96,,189800,,1,,402.5,407.5,407.9,,31033,1121,,30,,3,18,,55,,43,,205,,29,,189800,231800,,28.6,28.7,,1511,1514,1507,,0.7,1.5,,OP,7.5,6.7
2/15/13 19:20,,600,600,600,600,600,600,600,,10,,230.6,221.2,249.8,,50.02,,288000,,1,,402.8,407.8,409.2,,47755,-2028,,29,,4,17,,57,,46,,205,,28,,288000,403000,,28.7,28.9,,1517,1525,1510,,0,1.1,,OP,9.5,7.6
2/15/13 19:30,,600,600,600,600,600,600,600,,30,,272.5,268.5,294,,50.04,,341900,,1,,402.8,408.9,408.5,,57316,-4510,,29,,4,17,,58,,48,,205,,28,,341900,500100,,28.7,29,,1520,1529,1514,,-0.1,0.7,,OP,9.5,7.8
2/15/13 19:50,,600,600,600,600,600,600,600,,0,,95.7,90,119.3,,50.03,,124500,,1,,402.9,408.2,408.6,,20720,2461,,28,,3,18,,58,,46,,205,,28,,124500,169800,,28.6,28.7,,1510,1515,1508,,1.4,1.7,,OP,6.7,5.8
2/15/13 20:00,,600,600,600,600,600,600,600,,20,,152.5,152.1,181,,50.02,,199800,,1,,403.6,408.7,408.1,,33046,852,,28,,4,18,,58,,45,,205,,28,,199800,243900,,28.6,28.7,,1513,1516,1510,,0.7,1.5,,OP,7.5,6.6
2/15/13 20:20,,600,600,600,600,600,600,600,,10,,143.4,138.7,169.6,,50.02,,185800,,1,,402.9,408.6,408.5,,31196,1138,,28,,4,18,,59,,46,,205,,28,,185800,246000,,28.6,28.7,,1512,1516,1510,,0.8,1.4,,OP,7.4,6.5
2/15/13 20:50,,600,600,600,600,600,600,600,,0,,136.5,131.2,162.1,,50.04,,177000,,1,,403.6,409.5,408.8,,29706,1372,,27,,4,18,,59,,45,,205,,27,,177000,223800,,28.6,28.7,,1513,1516,1509,,0.9,1.5,,OP,7.4,6.4
2/15/13 21:00,,600,600,600,600,600,600,600,,10,,97.3,86.7,116.9,,50.04,,122900,,1,,403.4,409.8,409.5,,20461,2504,,27,,3,18,,58,,44,,205,,27,,122900,191700,,28.6,28.7,,1510,1515,1508,,1.4,1.7,,OP,6.8,5.8
2/15/13 21:20,,600,600,600,600,600,600,600,,0,,172.4,166.8,193.1,,50.07,,220400,,1,,405.9,411.1,410.3,,36763,265,,27,,4,17,,59,,45,,205,,27,,220400,272500,,28.7,28.8,,1515,1519,1512,,0.5,1.3,,OP,7.8,6.8
2/15/13 21:30,,600,600,600,600,600,600,600,,10,,191.3,185.4,211,,50.08,,243500,,1,,405.6,410.4,411.6,,40471,-514,,27,,4,17,,58,,45,,205,,27,,243500,293700,,28.7,28.8,,1517,1520,1510,,0.3,1.5,,OP,8.3,7.1
2/15/13 21:40,,600,600,600,600,600,600,600,,0,,207.7,199.7,226.2,,50.08,,262400,,1,,406.3,410.2,411.2,,43724,-1194,,27,,4,17,,55,,46,,205,,27,,262400,301600,,28.7,28.8,,1517,1520,1515,,0.2,0.5,,OP,8.4,7.3
2/15/13 21:50,,600,600,600,600,600,600,600,,0,,207.2,198.6,224.1,,50.09,,260900,,1,,405.2,410.5,412.4,,43532,-1040,,26,,4,17,,57,,46,,205,,27,,260900,308200,,28.7,28.8,,1518,1521,1515,,0.2,0.7,,OP,8.5,7.3
2/15/13 22:00,,600,600,600,600,600,600,600,,0,,199.6,192.4,214.9,,50.07,,251400,,1,,406.4,410.7,410.4,,41743,-715,,26,,4,17,,58,,47,,205,,27,,251400,307700,,28.7,28.8,,1517,1521,1512,,0.3,1,,OP,8.3,7.1
2/15/13 22:10,,600,600,600,600,600,600,600,,0,,200.1,196.9,219.9,,50.07,,255600,,1,,406.6,410.3,411.1,,42706,-865,,26,,4,17,,58,,47,,205,,27,,255600,301900,,28.7,28.8,,1517,1520,1513,,0.3,0.7,,OP,8.1,7.2
